<kml xmlns="http://www.opengis.net/kml/2.2"><Document><name></name><Placemark xmlns="http://www.opengis.net/kml/2.2"><name><![CDATA[No 1 - 900 Heatley Av]]></name><Point><coordinates>-123.0896336,49.27575579</coordinates></Point><description>1f1baac9-0776-4ff7-9985-37ad3f5a20ae</description></Placemark><Placemark xmlns="http://www.opengis.net/kml/2.2"><name><![CDATA[No 10 - 2992 Wesbrook Mall]]></name><Point><coordinates>-123.238169,49.258019</coordinates></Point><description>c9543aba-30c8-459d-a39c-263776fe30c3</description></Placemark><Placemark xmlns="http://www.opengis.net/kml/2.2"><name><![CDATA[No 12 - 2460 Balaclava St]]></name><Point><coordinates>-123.1736145,49.26479274</coordinates></Point><description>be4a03b2-31fb-48a5-9c4c-6e7a7ee2cecc</description></Placemark><Placemark xmlns="http://www.opengis.net/kml/2.2"><name><![CDATA[No 13 - 4013 Prince Albert ST]]></name><Point><coordinates>-123.0880635,49.24889068</coordinates></Point><description>8b233de1-2289-48b4-96b7-09046647a8b7</description></Placemark><Placemark xmlns="http://www.opengis.net/kml/2.2"><name><![CDATA[No 14 - 2804 Venables St]]></name><Point><coordinates>-123.0463537,49.27638867</coordinates></Point><description>173691ae-f3d9-4289-b36a-075875956d52</description></Placemark><Placemark xmlns="http://www.opengis.net/kml/2.2"><name><![CDATA[No 15 - 3003 E 22nd Av]]></name><Point><coordinates>-123.0412305,49.25088555</coordinates></Point><description>243ebe5e-f1fc-4f26-bb30-ebf2e6643bee</description></Placemark><Placemark xmlns="http://www.opengis.net/kml/2.2"><name><![CDATA[No 17 - 7070 Knight St]]></name><Point><coordinates>-123.076718,49.21980568</coordinates></Point><description>2104492e-5c5a-496c-bd2b-1604bf01df52</description></Placemark><Placemark xmlns="http://www.opengis.net/kml/2.2"><name><![CDATA[No 18 - 1375 W 38th Av]]></name><Point><coordinates>-123.1366127,49.23727165</coordinates></Point><description>42205366-e74b-46ae-aca6-266155035194</description></Placemark><Placemark xmlns="http://www.opengis.net/kml/2.2"><name><![CDATA[No 19 - 4396 W 12th Av]]></name><Point><coordinates>-123.2059424,49.26167944</coordinates></Point><description>8d80d97d-ed77-4160-82f2-dd4f20e7cd12</description></Placemark><Placemark xmlns="http://www.opengis.net/kml/2.2"><name><![CDATA[No 2 - 199 Main St]]></name><Point><coordinates>-123.1000289,49.28339893</coordinates></Point><description>92cdba6d-f3a6-49d9-9b59-72b2edd5d94c</description></Placemark><Placemark xmlns="http://www.opengis.net/kml/2.2"><name><![CDATA[No 20 - 5402 Victoria Drive]]></name><Point><coordinates>-123.0650523,49.23577915</coordinates></Point><description>f2b07048-2798-416e-8153-579766b3b8ca</description></Placemark><Placemark xmlns="http://www.opengis.net/kml/2.2"><name><![CDATA[No 21 - 5425 Carnarvon St]]></name><Point><coordinates>-123.1732814,49.23730325</coordinates></Point><description>98798991-bfb6-4344-b23d-afcbd7b49e4d</description></Placemark><Placemark xmlns="http://www.opengis.net/kml/2.2"><name><![CDATA[No 22 - 1005 W 59th Av]]></name><Point><coordinates>-123.1297701,49.21742538</coordinates></Point><description>322d4570-b177-4052-8e00-96dcb4ab9d74</description></Placemark><Placemark xmlns="http://www.opengis.net/kml/2.2"><name><![CDATA[No 3 - 2801 Quebec St]]></name><Point><coordinates>-123.1034324,49.25997166</coordinates></Point><description>8cab7f7c-3bfc-47c7-913d-c12b034d0f34</description></Placemark><Placemark xmlns="http://www.opengis.net/kml/2.2"><name><![CDATA[No 4 - 1475 W 10th Av]]></name><Point><coordinates>-123.137579,49.26287106</coordinates></Point><description>afaec3c8-5eea-49fd-81ed-9cac519f17ee</description></Placemark><Placemark xmlns="http://www.opengis.net/kml/2.2"><name><![CDATA[No 5 - 3090 E 54th Av]]></name><Point><coordinates>-123.0417508,49.21988386</coordinates></Point><description>9f72eb65-06ab-4e88-b3f7-89103995923f</description></Placemark><Placemark xmlns="http://www.opengis.net/kml/2.2"><name><![CDATA[No 6 - 1001 Nicola St]]></name><Point><coordinates>-123.1347863,49.28648774</coordinates></Point><description>b076e21c-b404-4b61-ac38-7c8ceede01bd</description></Placemark><Placemark xmlns="http://www.opengis.net/kml/2.2"><name><![CDATA[No 7 - 1090 Haro St]]></name><Point><coordinates>-123.1259308,49.2835249</coordinates></Point><description>02c7b3fe-28bf-4250-b295-61a07b59e418</description></Placemark><Placemark xmlns="http://www.opengis.net/kml/2.2"><name><![CDATA[No 8 - 895 Hamilton St]]></name><Point><coordinates>-123.1176394,49.27806066</coordinates></Point><description>1f715673-a6dc-4191-b7fa-da1e0832b143</description></Placemark><Placemark xmlns="http://www.opengis.net/kml/2.2"><name><![CDATA[No 9 - 1805 Victoria Drive]]></name><Point><coordinates>-123.0661831,49.26811179</coordinates></Point><description>5cd67ca1-733e-48ac-a393-4193fab9727b</description></Placemark></Document></kml>